{"type": "FeatureCollection", "features": [{"type": "Feature", "properties": {"addr:city": "Opole", "addr:housename": "Urząd Miasta Opola", "addr:housenumber": "1A", "addr:postcode": "45-015", "addr:street": "Rynek", "admin_level": "6", "email": "urzad@um.opole.pl", "government": "administrative", "name": "Urząd Miasta Opola", "office": "government", "phone": "+48 774511800", "website": "https://www.opole.pl/", "website:ua": "https://www.opole.pl/uk", "_id": "node/1384342242"}, "geometry": {"type": "Point", "coordinates": [17.922433, 50.6685381]}}, {"type": "Feature", "properties": {"addr:city": "Opole", "addr:housename": "Urząd Stanu Cywilnego", "addr:housenumber": "1A", "addr:postcode": "45-015", "addr:street": "Rynek", "government": "register_office", "name": "Urząd Stanu Cywilnego", "office": "government", "_id": "node/1384342249"}, "geometry": {"type": "Point", "coordinates": [17.922177, 50.6688131]}}, {"type": "Feature", "properties": {"addr:city": "Opole", "addr:housenumber": "24", "addr:street": "Władysława Reymonta", "email": "sekretariatpo@opole.po.gov.pl", "government": "prosecutor", "name": "Prokuratura Okręgowa w Opolu", "office": "government", "opening_hours": "Mo-Fr 07:30-15:30", "phone": "+48 77 400 12 00", "website": "https://www.prokuratura.opole.pl/", "_id": "node/1385803911"}, "geometry": {"type": "Point", "coordinates": [17.9298382, 50.6639871]}}, {"type": "Feature", "properties": {"addr:city": "Opole", "addr:housenumber": "100E", "addr:postcode": "45-641", "addr:street": "Oświęcimska", "name": "WTT S.A.", "office": "company", "phone": "+48 77 402 87 10", "source": "UM Opole", "website": "https://wttpolska.pl/", "_id": "node/2171227111"}, "geometry": {"type": "Point", "coordinates": [17.9658127, 50.605425]}}, {"type": "Feature", "properties": {"addr:city": "Opole", "addr:housenumber": "38A", "addr:postcode": "45-564", "addr:street": "Ludwika Solskiego", "email": "optel@optel.opole.pl", "name": "Optel", "office": "yes", "phone": "+48 77 453 96 71", "_id": "node/2192538224"}, "geometry": {"type": "Point", "coordinates": [17.945902, 50.6526921]}}, {"type": "Feature", "properties": {"addr:housename": "TAURON Sprzedaż Sp. z o.o.", "addr:street": "Oleska", "name": "TAURON Sprzedaż Sp. z o.o.", "office": "company", "_id": "node/2244505324"}, "geometry": {"type": "Point", "coordinates": [17.9258398, 50.6714019]}}, {"type": "Feature", "properties": {"addr:housename": "TAURON Obsługa Klienta Sp. z o.o. POK Opole", "addr:street": "Marii Konopnickiej", "name": "TAURON Obsługa Klienta Sp. z o.o. POK Opole", "office": "company", "_id": "node/2246057056"}, "geometry": {"type": "Point", "coordinates": [17.9190745, 50.670808]}}, {"type": "Feature", "properties": {"email": "opolersk@kmpsp.opole.pl", "fax": "+48 77 400 20 31", "government": "public_safety", "name": "Komenda Miejska Państwowej Straży Pożarnej", "office": "government", "official_name": "Komenda Miejska Państwowej Straży Pożarnej w Opolu", "phone": "+48 77 400 20 00", "short_name": "KM PSP Opole", "source:office": "Dane teleadresowe jednostek organizacyjnych Państwowej Straży Pożarnej według stanu na 16.02.2022", "website": "https://www.gov.pl/web/kmpsp-opole", "_id": "node/2340115774"}, "geometry": {"type": "Point", "coordinates": [17.9625655, 50.664252]}}, {"type": "Feature", "properties": {"contact:email": "opole@luteranie.pl", "contact:phone": "+48 77 454 44 20;+48 503 428 583", "denomination": "lutheran", "name": "Parafia Ewangelicko-Augsburska", "office": "religion", "religion": "christian", "website": "https://opole.luteranie.pl/", "wikidata": "Q11803343", "wikipedia": "pl:Parafia Ewangelicko-Augsburska w Opolu", "_id": "node/2349791503"}, "geometry": {"type": "Point", "coordinates": [17.9179426, 50.6626302]}}, {"type": "Feature", "properties": {"name": "Powiatowy Urząd Pracy", "office": "employment_agency", "phone": "+48774422929", "website": "https://opole.praca.gov.pl/", "_id": "node/2365964483"}, "geometry": {"type": "Point", "coordinates": [17.9503645, 50.6833816]}}, {"type": "Feature", "properties": {"government": "cadaster", "name": "Urząd Marszałkowski Departament Geodezji, Kartografii i Gospodarki Nieruchomościami, Referat Geodezji i Kartografii - Wojewódzki Ośrodek Dokumentacji Geodezyjnej i Kartograficznej", "office": "government", "_id": "node/3054456040"}, "geometry": {"type": "Point", "coordinates": [17.9243648, 50.6671235]}}, {"type": "Feature", "properties": {"check_date": "2023-11-28", "check_date:opening_hours": "2023-11-28", "emergency": "control_centre", "fax": "+48 77 421 68 31", "government": "emergency", "name": "Centrum Powiadamiania Ratunkowego", "office": "government", "opening_hours": "24/7", "opening_hours:signed": "no", "phone": "112", "phone_alt": "+48 77 421 68 30;+48 77 421 68 32", "short_name": "CPR", "_id": "node/3277093421"}, "geometry": {"type": "Point", "coordinates": [17.9436707, 50.6853692]}}, {"type": "Feature", "properties": {"contact:phone": "+48 77 423 10 00; +48 77 453 14 56", "contact:website": "http://opole.stat.gov.pl/", "name": "Urząd Statystyczny w Opolu - Informatorium, REGON", "office": "government", "opening_hours": "Mo 07:30-18:00; Tu-Fr 07:30-15:30", "operator": "Główny Urząd Statystyczny", "_id": "node/3389701855"}, "geometry": {"type": "Point", "coordinates": [17.9270805, 50.6661795]}}, {"type": "Feature", "properties": {"addr:housenumber": "123", "addr:postcode": "45-233", "addr:street": "Oleska", "check_date:opening_hours": "2026-02-17", "contact:phone": "+48 77 455 60 36", "contact:website": "http://www.opole.oschr.gov.pl", "email": "sekretariat@opole.oschr.gov.pl", "email_2": "opole@schr.gov.pl", "fax": "+48 77 455 62 21", "name": "Okręgowa Stacja Chemiczno - Rolnicza w Opolu", "office": "government", "opening_hours": "Mo-Fr 07:30-15:30", "opening_hours:signed": "no", "_id": "node/3426360134"}, "geometry": {"type": "Point", "coordinates": [17.9436328, 50.685312]}}, {"type": "Feature", "properties": {"contact:phone": "+48 77 464 03 85", "contact:website": "http://www.filtech.pl/", "email": "tog@filtech.pl", "fax": "+48 77 464 00 43", "name": "Filtech Technika Odwadniania Osadów sp. z o. o.", "office": "company", "_id": "node/3428218081"}, "geometry": {"type": "Point", "coordinates": [17.8180385, 50.6702492]}}, {"type": "Feature", "properties": {"contact:phone": "+48 77 442 69 01", "contact:website": "http://wsseopole.pis.gov.pl/", "email": "wsse.opole@pis.gov.pl", "fax": "+48 77 442 69 04", "name": "Wojewódzka stacja sanitarno-epidemiologiczna w Opolu", "office": "government", "_id": "node/3445365648"}, "geometry": {"type": "Point", "coordinates": [17.9385892, 50.6663057]}}, {"type": "Feature", "properties": {"contact:phone": "+48 77 449 8500", "contact:website": "https://cos.po.opole.pl/", "name": "Centrum Obsługi Studenta", "office": "ngo", "opening_hours": "Mo-Fr 10:00-14:00", "operator": "Politechnika Opolska", "_id": "node/3827675406"}, "geometry": {"type": "Point", "coordinates": [17.9438124, 50.6818553]}}, {"type": "Feature", "properties": {"addr:city": "Opole", "addr:housenumber": "34E", "addr:postcode": "45-285", "addr:street": "Szarych Szeregów", "name": "Netia", "office": "telecommunication", "opening_hours": "Mo-Fr 09:00-17:00", "_id": "node/3841003291"}, "geometry": {"type": "Point", "coordinates": [17.950576, 50.6729962]}}, {"type": "Feature", "properties": {"addr:city": "Opole", "addr:housenumber": "11", "addr:postcode": "45-084", "addr:street": "Strzelców Bytomskich", "consulate": "yes", "country": "DE", "diplomatic": "consulate", "name": "Konsulat Republiki Federalnej Niemiec", "name:de": "Konsulat der Bundesrepublik Deutschland", "office": "diplomatic", "opening_hours": "Mo-Fr 08:00-11:30", "target": "PL", "website": "https://polen.diplo.de/pl-de/01-vertretungen/01-5-gk-oppeln", "_id": "node/3920718766"}, "geometry": {"type": "Point", "coordinates": [17.9177834, 50.6646167]}}, {"type": "Feature", "properties": {"office": "company", "_id": "node/4292163669"}, "geometry": {"type": "Point", "coordinates": [17.9969361, 50.7123645]}}, {"type": "Feature", "properties": {"office": "company", "_id": "node/4292163834"}, "geometry": {"type": "Point", "coordinates": [17.9953332, 50.7129495]}}, {"type": "Feature", "properties": {"office": "company", "_id": "node/4292169738"}, "geometry": {"type": "Point", "coordinates": [18.0313228, 50.725932]}}, {"type": "Feature", "properties": {"addr:city": "Opole", "addr:housenumber": "31", "addr:postcode": "45-054", "addr:street": "Grunwaldzka", "name": "Biuro Nauki i Obsługi Projektów UO", "office": "yes", "website": "https://bniop.uni.opole.pl", "_id": "node/4542694253"}, "geometry": {"type": "Point", "coordinates": [17.9343134, 50.6716996]}}, {"type": "Feature", "properties": {"contact:email": "wup@wup.opole.pl", "contact:phone": "+48 77 44 16 701", "name": "Wojewódzki Urząd Pracy", "office": "government", "opening_hours": "Mo-Fr 07:30-15:30", "website": "https://wupopole.praca.gov.pl/", "_id": "node/4783240494"}, "geometry": {"type": "Point", "coordinates": [17.9645739, 50.6625931]}}, {"type": "Feature", "properties": {"addr:city": "Opole", "addr:housenumber": "35B", "addr:postcode": "45-315", "addr:street": "Głogowska", "name": "PEKAES SA", "office": "company", "_id": "node/4803332016"}, "geometry": {"type": "Point", "coordinates": [17.9674028, 50.6603033]}}, {"type": "Feature", "properties": {"addr:city": "Opole", "addr:housenumber": "35B", "addr:postcode": "45-315", "addr:street": "Głogowska", "name": "ZND CE Sp.z o.o.", "office": "company", "_id": "node/4803332017"}, "geometry": {"type": "Point", "coordinates": [17.9672513, 50.6602616]}}, {"type": "Feature", "properties": {"contact:phone": "+48 323122400", "name": "Capgemini", "office": "it", "website": "https://www.capgemini.com/pl-pl/opole/", "_id": "node/5160454612"}, "geometry": {"type": "Point", "coordinates": [17.8802559, 50.6819759]}}, {"type": "Feature", "properties": {"denomination": "roman_catholic", "description": "Kancelaria parafii Przemienienia Pańskiego w Opolu", "email": "parafia@ppp.opole.pl", "name": "Kancelaria parafialna", "office": "religion", "opening_hours": "Mo-Fr 16:00-18:00", "phone": "+48 77 455 55 46", "religion": "christian", "website": "https://www.ppp.opole.pl/", "_id": "node/5250907252"}, "geometry": {"type": "Point", "coordinates": [17.9467968, 50.6763926]}}, {"type": "Feature", "properties": {"denomination": "roman_catholic", "description": "Kancelaria parafii Świętego Karola Boromeusza w Opolu", "email": "parafia@boromeusz.opole.pl", "name": "Kancelaria parafialna", "office": "religion", "phone": "+48 77 455 28 57", "religion": "christian", "website": "https://www.boromeusz.opole.pl/", "_id": "node/5250907257"}, "geometry": {"type": "Point", "coordinates": [17.9320086, 50.6818215]}}, {"type": "Feature", "properties": {"denomination": "roman_catholic", "description": "Kancelaria parafii Wniebowzięcia Najświętszej Maryi Panny w Opolu", "email": "parafiaopolegoslawice@gmail.com", "name": "Kancelaria parafialna", "office": "religion", "opening_hours": "Mo-Sa 07:30-08:00; Mo-Fr 18:30-19:00", "phone": "+48 77 402 79 35", "religion": "christian", "website": "https://parafiagoslawice.pl", "_id": "node/5250907260"}, "geometry": {"type": "Point", "coordinates": [17.9589947, 50.6812955]}}, {"type": "Feature", "properties": {"denomination": "roman_catholic", "description": "Kancelaria parafii Świętego Jacka w Opolu", "email": "parafia@swjacek.opole.pl", "name": "Kancelaria parafialna", "office": "religion", "opening_hours": "Tu 09:00-10:00; Fr 16:00-17:00; Th 09:00-10:00", "phone": "+48 77 455 07 26", "religion": "christian", "website": "https://www.swjacek.opole.pl/", "_id": "node/5250907261"}, "geometry": {"type": "Point", "coordinates": [17.9810442, 50.6692752]}}, {"type": "Feature", "properties": {"denomination": "roman_catholic", "description": "Kancelaria parafii Najświętszego Serca Pana Jezusa w Opolu", "email": "kancelaria@jezuici.opole.pl", "name": "Kancelaria parafialna", "office": "religion", "opening_hours": "Mo 08:30-09:30, 16:30-17:30; We 16:30-17:30; Th 19:00-20:00; Sa 08:30-09:30", "operator": "Jezuici (SI)", "phone": "+48 77 423 47 60", "religion": "christian", "website": "https://jezuici.opole.pl", "_id": "node/5250907262"}, "geometry": {"type": "Point", "coordinates": [17.9301296, 50.6712779]}}, {"type": "Feature", "properties": {"denomination": "roman_catholic", "description": "Kancelaria parafii Podwyższenia Krzyża Świętego w Opolu", "email": "kancelaria@katedra.opole.pl", "name": "Kancelaria parafialna", "office": "religion", "opening_hours": "Mo-Fr 09:00-12:00,16:00-18:00; Sa 08:00-11:00", "phone": "+48 77 454 25 79", "religion": "christian", "website": "http://www.katedra.opole.pl", "_id": "node/5251045195"}, "geometry": {"type": "Point", "coordinates": [17.9199842, 50.6698473]}}, {"type": "Feature", "properties": {"denomination": "roman_catholic", "description": "Kancelaria parafii Ducha Świętego w Opolu", "email": "gienekploch@gmail.com", "name": "Kancelaria parafialna", "office": "religion", "phone": "+48 77 474 83 93", "religion": "christian", "website": "https://parafia.winow.pl/", "_id": "node/5251100308"}, "geometry": {"type": "Point", "coordinates": [17.9037912, 50.6376587]}}, {"type": "Feature", "properties": {"denomination": "roman_catholic", "description": "Kancelaria parafii Świętego Józefa w Opolu", "email": "parafia@szczepanowice.opole.pl", "name": "Kancelaria parafialna", "office": "religion", "opening_hours": "Mo-Fr 07:00-08:00; Mo,We,Fr 18:30-19:30", "phone": "+48 77 474 35 35", "religion": "christian", "website": "https://www.szczepanowice.opole.pl/", "_id": "node/5251100315"}, "geometry": {"type": "Point", "coordinates": [17.9046623, 50.6549111]}}, {"type": "Feature", "properties": {"denomination": "roman_catholic", "description": "Kancelaria parafii Bożego Ciała i Świętego Norberta w Opolu", "email": "czarnowasy@opole.opoka.org.pl", "name": "Kancelaria parafialna", "office": "religion", "opening_hours": "Mo-Tu,Th-Fr 07:30-08:00,17:30-18:00", "phone": "+48 77 469 10 84", "religion": "christian", "website": "http://www.czarnowasy.opole.opoka.org.pl", "_id": "node/5251170373"}, "geometry": {"type": "Point", "coordinates": [17.9007829, 50.7204863]}}, {"type": "Feature", "properties": {"denomination": "roman_catholic", "description": "Kancelaria parafii Świętego Michała Archanioła w Opolu", "email": "parafia@sw-michal.opole.pl", "name": "Kancelaria parafialna", "office": "religion", "opening_hours": "Mo 08:00-13:00; Mo,Fr 18:30-19:00", "phone": "+48 77 474 27 20", "religion": "christian", "website": "http://www.sw-michal.opole.pl", "_id": "node/5251170392"}, "geometry": {"type": "Point", "coordinates": [17.8892309, 50.6773172]}}, {"type": "Feature", "properties": {"denomination": "roman_catholic", "description": "Kancelaria parafii Błogosławionego Czesława w Opolu", "email": "parafiaczeslaw@parafia.opole.pl", "name": "Kancelaria parafialna", "office": "religion", "opening_hours": "Mo,We,Fr 07:30-09:00; Mo,Fr 16:00-17:30; Th 18:30-20:00", "phone": "+48 77 474 69 71", "religion": "christian", "website": "https://parafia.opole.pl/", "_id": "node/5251730792"}, "geometry": {"type": "Point", "coordinates": [17.8949026, 50.6667959]}}, {"type": "Feature", "properties": {"denomination": "roman_catholic", "description": "Kancelaria parafii Matki Boskiej Fatimskiej w Opolu", "email": "proboszcz@mbf.opole.pl", "name": "Kancelaria parafialna", "office": "religion", "opening_hours": "Mo-Fr 18:30-19:00; Sa 08:30-09:00", "phone": "+48 77 454 05 44", "religion": "christian", "website": "https://mbf.opole.pl/", "_id": "node/5251749425"}, "geometry": {"type": "Point", "coordinates": [17.9838007, 50.6457845]}}, {"type": "Feature", "properties": {"denomination": "roman_catholic", "description": "Kancelaria parafii Świętej Jadwigi Śląskiej w Opolu", "name": "Kancelaria parafialna", "office": "religion", "phone": "+48 77 456 31 06", "religion": "christian", "_id": "node/5251769976"}, "geometry": {"type": "Point", "coordinates": [17.997361, 50.6222995]}}, {"type": "Feature", "properties": {"check_date": "2024-02-24", "denomination": "roman_catholic", "description": "Kancelaria parafii Świętej Katarzyny Aleksandryjskiej w Opolu", "email": "norbertus61@interia.pl", "name": "Kancelaria parafialna", "office": "religion", "opening_hours": "Mo-We,Fr 07:30-09:00; Tu-We 17:00-19:00", "phone": "+48 77 456 27 96", "religion": "christian", "website": "http://www.parafiagroszowice.pl/kancelaria.html", "_id": "node/5251793024"}, "geometry": {"type": "Point", "coordinates": [17.9597747, 50.6258948]}}, {"type": "Feature", "properties": {"addr:city": "Opole", "addr:housenumber": "15", "addr:postcode": "45-564", "addr:street": "Ludwika Solskiego", "email": "opole@pzd.pl", "name": "Polski Związek Działkowców Okręg Opolski w Opolu", "office": "yes", "phone": "+48 77 454 28 52", "_id": "node/5296259687"}, "geometry": {"type": "Point", "coordinates": [17.9460209, 50.6544162]}}, {"type": "Feature", "properties": {"denomination": "roman_catholic", "description": "Kancelaria parafii Świętej Katarzyny Aleksandryjskiej w Dobrzeniu Wielkim", "email": "jpolok@diecezja.opole.pl", "name": "Kancelaria parafialna", "office": "religion", "opening_hours": "Mo,Tu,Fr 16:00-17:00", "phone": "+48 77 469 52 20", "religion": "christian", "website": "http://www.parafia-dobrzen.pl", "_id": "node/5323280637"}, "geometry": {"type": "Point", "coordinates": [17.8431665, 50.7593957]}}, {"type": "Feature", "properties": {"denomination": "roman_catholic", "description": "Kancelaria parafii Świętego Antoniego w Luboszycach", "email": "kontakt@parafialuboszyce.pl", "name": "Kancelaria parafialna", "office": "religion", "opening_hours": "We 18:50-19:30; Th 08:00-08:30", "phone": "+48 77 421 57 15", "religion": "christian", "website": "https://www.parafialuboszyce.pl", "_id": "node/5323302413"}, "geometry": {"type": "Point", "coordinates": [17.9560902, 50.7267301]}}, {"type": "Feature", "properties": {"denomination": "roman_catholic", "description": "Kancelaria parafii Świętego Floriana w Zawadzie", "email": "parafia@florian-zawada.pl", "name": "Kancelaria parafialna", "office": "religion", "opening_hours": "Mo,Tu,Th 18:30-19:00; We 08:30-19:00; Fr 09:00-10:00", "phone": "+48 77 421 28 84", "religion": "christian", "website": "https://florian-zawada.pl/", "_id": "node/5323558656"}, "geometry": {"type": "Point", "coordinates": [17.9910337, 50.7142569]}}, {"type": "Feature", "properties": {"denomination": "roman_catholic", "description": "Kancelaria parafii Świętego Mikołaja w Żelaznej", "name": "Kancelaria parafialna", "office": "religion", "phone": "+48 77 464 21 20", "religion": "christian", "_id": "node/5324721491"}, "geometry": {"type": "Point", "coordinates": [17.8498581, 50.7290588]}}, {"type": "Feature", "properties": {"brand": "CUK Ubezpieczenia", "brand:wikidata": "Q113230028", "email": "opole@cuk.pl", "name": "CUK Ubezpieczenia", "office": "insurance", "phone": "+48 77 435 80 30", "_id": "node/5334660907"}, "geometry": {"type": "Point", "coordinates": [17.9366932, 50.6684075]}}, {"type": "Feature", "properties": {"denomination": "roman_catholic", "description": "Kancelaria parafii Matki Boskiej Nieustającej Pomocy w Opolu", "name": "Kancelaria parafialna", "office": "religion", "opening_hours": "Mo-Tu,Th-Fr 07:30-08:00,16:30-17:30", "phone": "+48 77 454 25 25", "religion": "christian", "website": "https://mbnpopole.pl", "_id": "node/5343586065"}, "geometry": {"type": "Point", "coordinates": [17.9476795, 50.6489399]}}, {"type": "Feature", "properties": {"denomination": "roman_catholic", "description": "Kancelaria parafii Chrystusa Króla w Opolu", "email": "proboszcz@parafia-metalchem.pl", "name": "Kancelaria parafialna", "office": "religion", "phone": "+48 77 546 73 46", "religion": "christian", "website": "https://www.parafia-metalchem.pl/", "_id": "node/5343630701"}, "geometry": {"type": "Point", "coordinates": [17.9730377, 50.6070976]}}, {"type": "Feature", "properties": {"denomination": "roman_catholic", "description": "Kancelaria parafii Świętych Apostołów Piotra i Pawła w Opolu", "email": "parafia@pip.opole.pl", "name": "Kancelaria parafialna", "office": "religion", "opening_hours": "Mo-Fr 09:00-12:00; Mo-We 16:00-18:00", "phone": "+48 77 454 26 60", "religion": "christian", "website": "https://pip.opole.pl/", "_id": "node/5343943544"}, "geometry": {"type": "Point", "coordinates": [17.9379167, 50.6670773]}}, {"type": "Feature", "properties": {"denomination": "roman_catholic", "description": "Kancelaria parafii Świętego Józefa Robotnika w Opolu", "email": "hubertlysy@interia.pl", "name": "Kancelaria parafialna", "office": "religion", "opening_hours": "Oct-May Mo-Fr 18:30-19:00; Jun-Sep 19:00-19:30", "phone": "+48 77 457 56 09", "religion": "christian", "website": "https://wrzoski.parafialnastrona.pl", "_id": "node/5344493183"}, "geometry": {"type": "Point", "coordinates": [17.8180329, 50.6854215]}}, {"type": "Feature", "properties": {"denomination": "roman_catholic", "description": "Kancelaria parafii Świętego Jana Nepomucena w Opolu", "email": "kancelaria@parafiaslawice.pl", "name": "Kancelaria parafialna", "office": "religion", "phone": "+48 77 474 50 51", "religion": "christian", "website": "https://parafiaslawice.pl/", "_id": "node/5344548682"}, "geometry": {"type": "Point", "coordinates": [17.8586393, 50.7033686]}}, {"type": "Feature", "properties": {"denomination": "roman_catholic", "description": "Kancelaria parafii Świętej Anny Samotrzeciej w Opolu", "email": "chmielowice@opole.opoka.org.pl", "name": "Kancelaria parafialna", "office": "religion", "phone": "+48 77 474 55 06", "religion": "christian", "website": "https://chmielowice.parafialna.eu/", "_id": "node/5344574104"}, "geometry": {"type": "Point", "coordinates": [17.8662821, 50.6492053]}}, {"type": "Feature", "properties": {"denomination": "roman_catholic", "description": "Kancelaria parafii Świętego Floriana w Naroku", "name": "Kancelaria parafialna", "office": "religion", "opening_hours": "Mo 18:30-19:00; Tu-We,Fr 08:00-08:30", "phone": "+48 77 464 20 10", "religion": "christian", "website": "http://narok.com.pl", "_id": "node/5344601669"}, "geometry": {"type": "Point", "coordinates": [17.7912125, 50.7433367]}}, {"type": "Feature", "properties": {"denomination": "roman_catholic", "description": "Kancelaria parafii Świętego Józefa Robotnika w Węgrach", "name": "Kancelaria parafialna", "office": "religion", "phone": "+48 77 421 24 84", "religion": "christian", "website": "http://wegry.turawa.pl/parafia", "_id": "node/5368138611"}, "geometry": {"type": "Point", "coordinates": [18.020074, 50.7501762]}}, {"type": "Feature", "properties": {"denomination": "roman_catholic", "description": "Kancelaria parafii Trójcy Świętej w Boguszycach", "name": "Kancelaria parafialna", "office": "religion", "phone": "+48 77 464 85 94", "religion": "christian", "_id": "node/5373438479"}, "geometry": {"type": "Point", "coordinates": [17.932983, 50.5928083]}}, {"type": "Feature", "properties": {"denomination": "roman_catholic", "description": "Kancelaria parafii Nawiedzenia Najświętszej Maryi Panny w Polskiej Nowej Wsi", "name": "Kancelaria parafialna", "office": "religion", "phone": "+48 77 464 62 62", "religion": "christian", "_id": "node/5374514528"}, "geometry": {"type": "Point", "coordinates": [17.7957233, 50.6394163]}}, {"type": "Feature", "properties": {"denomination": "roman_catholic", "description": "Kancelaria parafii Świętego Marcina w Ochodzach", "name": "Kancelaria parafialna", "office": "religion", "phone": "+48 77 464 68 38", "religion": "christian", "website": "https://parafiaochodze.pl", "_id": "node/5375508909"}, "geometry": {"type": "Point", "coordinates": [17.807705, 50.6100255]}}, {"type": "Feature", "properties": {"denomination": "roman_catholic", "description": "Kancelaria parafii Świętego Franciszka z Asyżu w Komprachcicach", "name": "Kancelaria parafialna", "office": "religion", "opening_hours": "Mo,We-Fr 17:00-18:00; Tu-Sa 07:30-08:00", "phone": "+48 77 464 61 64", "religion": "christian", "website": "https://parafiakomprachcice.eu", "_id": "node/5375535396"}, "geometry": {"type": "Point", "coordinates": [17.8231616, 50.6358753]}}, {"type": "Feature", "properties": {"denomination": "roman_catholic", "description": "Kancelaria parafii Niepokalanego Serca Najświętszej Maryi Panny w Domecku", "email": "proboszcz.domecko@protonmail.com", "name": "Kancelaria parafialna", "office": "religion", "phone": "+48 77 464 61 05", "religion": "christian", "website": "https://www.parafiadomecko.pl/", "_id": "node/5375547332"}, "geometry": {"type": "Point", "coordinates": [17.8679064, 50.6126866]}}, {"type": "Feature", "properties": {"denomination": "roman_catholic", "description": "Kancelaria parafii Matki Boskiej Szkaplerznej w Chrząszczycach", "name": "Kancelaria parafialna", "office": "religion", "phone": "+48 77 474 84 03", "religion": "christian", "_id": "node/5376246399"}, "geometry": {"type": "Point", "coordinates": [17.8953144, 50.611794]}}, {"type": "Feature", "properties": {"denomination": "roman_catholic", "description": "Kancelaria parafii Świętych Apostołów Piotra i Pawła w Chróścinie", "name": "Kancelaria parafialna", "office": "religion", "phone": "+48 77 464 02 52", "religion": "christian", "website": "http://parafia.mechnice.pl", "_id": "node/5376290034"}, "geometry": {"type": "Point", "coordinates": [17.8147968, 50.6657412]}}, {"type": "Feature", "properties": {"addr:postcode": "45-315", "contact:facebook": "oceopole", "email": "kontakt@oce.opolskie.pl", "internet_access": "wlan", "name": "Opolskie Centrum Edukacji - Regionalne Centrum Rozwoju Edukacji", "office": "company", "opening_hours": "Mo-Fr 07:30-15:30", "phone": "+48 77 457 98 95", "website": "https://oce.opolskie.pl", "_id": "node/5410533821"}, "geometry": {"type": "Point", "coordinates": [17.9644252, 50.6621848]}}, {"type": "Feature", "properties": {"addr:city": "Opole", "addr:housenumber": "2", "addr:postcode": "45-839", "addr:street": "Technologiczna", "email": "biuro@emspl.org.pl", "level": "2", "name": "FUNDACJA EMS PL", "office": "foundation", "opening_hours": "24/7", "_id": "node/5596269904"}, "geometry": {"type": "Point", "coordinates": [17.8740941, 50.6838726]}}, {"type": "Feature", "properties": {"addr:city": "Opole", "addr:housenumber": "41", "addr:postcode": "45-315", "addr:street": "Głogowska", "email": "broekelmann@broekelmann.com.pl", "name": "Broekelmann Polska Sp. z o.o.", "office": "company", "opening_hours": "Mo-Fr 08:00-16:00", "phone": "+48 77 410 66 37", "website": "http://www.broekelmann.com.pl", "_id": "node/5800776153"}, "geometry": {"type": "Point", "coordinates": [17.9709837, 50.6592283]}}, {"type": "Feature", "properties": {"email": "sekretariat@skgd.pl", "name": "Towarzystwo Społeczno-Kulturalne Niemców na Śląsku Opolskim", "name:de": "Sozial-Kulturelle Gesellschaft der Deutschen im Oppelner Schlesien", "office": "ngo", "opening_hours": "Mo 07:30-17:00; Tu-Th 07:30-15:30; Fr 07:30-14:00", "phone": "+48 77 402 10 70", "website": "https://skgd.pl/", "wikipedia:de": "Sozial-Kulturelle Gesellschaft der Deutschen im Oppelner Schlesien", "_id": "node/5801544558"}, "geometry": {"type": "Point", "coordinates": [17.9187139, 50.670866]}}, {"type": "Feature", "properties": {"addr:city": "Opole", "addr:housenumber": "2", "addr:postcode": "45-839", "addr:street": "Technologiczna", "email": "handlowy@wspts.pl", "level": "2", "name": "World Support Service Sp. z o.o.", "office": "it", "opening_hours": "24/7", "phone": "+48 7754 30 120", "website": "https://wspts.pl/", "_id": "node/5838587928"}, "geometry": {"type": "Point", "coordinates": [17.8740159, 50.6838118]}}, {"type": "Feature", "properties": {"addr:street": "Ludwika Solskiego", "name": "APN PRACJA", "office": "company", "_id": "node/5854551685"}, "geometry": {"type": "Point", "coordinates": [17.9429322, 50.6524169]}}, {"type": "Feature", "properties": {"addr:housenumber": "13", "addr:street": "Stanisława Spychalskiego", "email": "info@sebprojekt.pl", "name": "SEBprojekt.pl | strony www", "office": "it", "phone": "+48 606 205 088", "website": "https://www.sebprojekt.pl/", "_id": "node/6616467284"}, "geometry": {"type": "Point", "coordinates": [17.9128175, 50.6678085]}}, {"type": "Feature", "properties": {"addr:housenumber": "8", "addr:postcode": "45-265", "addr:street": "Jana Bytnara „Rudego”", "name": "Centrum Aktywizacji Zawodowej Urzad pracy", "name:pl": "Centrum Aktywizacji Zawodowej Powiatowy Urzad Pracy", "office": "government", "opening_hours": "Tu-Th 08:00-14:00; Mo 08:00-15:00; Fr 08:00-13:00", "phone": "+48 77 442 29 40", "_id": "node/6709292385"}, "geometry": {"type": "Point", "coordinates": [17.9496176, 50.680207]}}, {"type": "Feature", "properties": {"admin_level": "4", "email": "sekretariat@psp.opole.pl; wskr@psp.opole.pl", "fax": "+48 77 420 70 80; +48 77 420 70 85", "government": "public_safety", "name": "Komenda Wojewódzka Państwowej Straży Pożarnej", "office": "government", "official_name": "Komenda Wojewódzka Państwowej Straży Pożarnej w Opolu", "phone": "+48 77 420 70 01; +48 77 420 70 22; +48 77 420 70 60", "short_name": "KW PSP Opole", "source:office": "Dane teleadresowe jednostek organizacyjnych Państwowej Straży Pożarnej według stanu na 16.02.2022", "website": "https://psp.opole.pl/", "_id": "node/6942767344"}, "geometry": {"type": "Point", "coordinates": [17.9166814, 50.6745287]}}, {"type": "Feature", "properties": {"check_date": "2024-12-14", "consulate": "honorary_consul", "country": "HR", "diplomatic": "consulate", "name": "Konsulat Republiki Chorwacji", "name:en": "Consulate of Croatia", "name:fr": "Consulat de Croatie", "name:hr": "Konzulat Republike Hrvatske", "office": "diplomatic", "official_name:en": "Consulate of the Republic of Croatia", "opening_hours": "Tu 12:00-14:00;Th 12:00-14:00", "target": "PL", "_id": "node/6952078918"}, "geometry": {"type": "Point", "coordinates": [17.9248541, 50.6655444]}}, {"type": "Feature", "properties": {"addr:city": "Opole", "addr:housenumber": "4", "addr:postcode": "45-348", "addr:street": "Marii Rodziewiczówny", "name": "PGNiG", "office": "company", "_id": "node/6953409649"}, "geometry": {"type": "Point", "coordinates": [17.943369, 50.661423]}}, {"type": "Feature", "properties": {"addr:city": "Opole", "addr:housenumber": "72a", "addr:postcode": "45-310", "addr:street": "Ozimska", "air_conditioning": "yes", "email": "sekretariat@nfz-opole.pl", "loc_name": "NFZ Opole", "name": "Opolski Oddział Wojewódzki NFZ", "office": "government", "opening_hours": "mo 08:00-18:00 tu-Fr 08:00-16:00", "phone": "+48 77 402 01 00", "website": "https://www.nfz-opole.pl", "wheelchair": "yes", "_id": "node/7160056497"}, "geometry": {"type": "Point", "coordinates": [17.9505404, 50.6682194]}}, {"type": "Feature", "properties": {"email": "opole@abpraca.pl", "name": "AB Job Service", "office": "company", "phone": "+48 77 460 90 77", "website": "https://abpraca.pl/", "_id": "node/7379535659"}, "geometry": {"type": "Point", "coordinates": [17.9267035, 50.6662804]}}, {"type": "Feature", "properties": {"name": "DBK TRUCK CENTER", "office": "company", "phone": "+48 77 402 65 31", "website": "https://grupadbk.com/kontakt/#dbk-truck-center-opole", "_id": "node/7663348335"}, "geometry": {"type": "Point", "coordinates": [17.8644837, 50.6808927]}}, {"type": "Feature", "properties": {"denomination": "roman_catholic", "description": "Kancelaria parafii Świętego Jana Pawła II w Opolu", "email": "proboszcz.opole@oblaci.net", "name": "Kancelaria parafialna", "office": "religion", "operator": "Oblaci (OMI)", "phone": "+48 518 350 203", "religion": "christian", "website": "http://opole.oblaci.pl", "_id": "node/7681141735"}, "geometry": {"type": "Point", "coordinates": [17.9747483, 50.6825626]}}, {"type": "Feature", "properties": {"office": "travel_agent", "_id": "node/7856232027"}, "geometry": {"type": "Point", "coordinates": [17.9294825, 50.6659882]}}, {"type": "Feature", "properties": {"addr:city": "Opole", "addr:housenumber": "2", "addr:postcode": "45-839", "addr:street": "Technologiczna", "name": "ProfiProtect Sp. z o.o.", "office": "company", "opening_hours": "Mo-Fr 08:00-17:00", "phone": "+48735 151 393", "website": "https://profiprotect.pl/", "_id": "node/8118295342"}, "geometry": {"type": "Point", "coordinates": [17.8740135, 50.6837659]}}, {"type": "Feature", "properties": {"denomination": "roman_catholic", "description": "Kancelaria parafii Matki Boskiej Bolesnej i Świętego Wojciecha w Opolu", "name": "Kancelaria parafialna", "office": "religion", "opening_hours": "Mo,We,Fr 16:00-16:45; Tu,Th 10:00-11:00", "phone": "+48 73 615 70 99", "religion": "christian", "website": "https://parafianagorce.pl", "_id": "node/8280738577"}, "geometry": {"type": "Point", "coordinates": [17.9254805, 50.6695923]}}, {"type": "Feature", "properties": {"addr:housenumber": "25", "addr:street": "Rynek", "check_date": "2024-08-06", "name": "Struxi Deweloper", "office": "company", "_id": "node/8329014006"}, "geometry": {"type": "Point", "coordinates": [17.9231301, 50.6684099]}}, {"type": "Feature", "properties": {"addr:housenumber": "8", "addr:street": "Rynek", "check_date": "2024-04-17", "name": "Sindbad", "office": "transport", "_id": "node/8329014008"}, "geometry": {"type": "Point", "coordinates": [17.9215823, 50.6685391]}}, {"type": "Feature", "properties": {"addr:city": "Opole", "addr:housenumber": "30-31", "addr:street": "Rynek", "name": "Open Finance", "office": "financial", "_id": "node/8329014009"}, "geometry": {"type": "Point", "coordinates": [17.9225861, 50.6680516]}}, {"type": "Feature", "properties": {"name": "MultiAgent Donata Niezgoda", "office": "insurance", "_id": "node/8335378796"}, "geometry": {"type": "Point", "coordinates": [17.966212, 50.6699467]}}, {"type": "Feature", "properties": {"name": "Księgość.pl sp. z o.o.", "office": "accountant", "_id": "node/8349747008"}, "geometry": {"type": "Point", "coordinates": [17.9694636, 50.6748709]}}, {"type": "Feature", "properties": {"check_date": "2024-04-15", "check_date:opening_hours": "2024-04-15", "name": "OWB", "office": "insurance", "opening_hours:signed": "no", "_id": "node/8349774318"}, "geometry": {"type": "Point", "coordinates": [17.975033, 50.6707368]}}, {"type": "Feature", "properties": {"check_date:opening_hours": "2024-04-13", "name": "Kancelaria Adwokacka PACTA", "office": "lawyer", "opening_hours:signed": "no", "_id": "node/8349774320"}, "geometry": {"type": "Point", "coordinates": [17.9749283, 50.6715854]}}, {"type": "Feature", "properties": {"check_date:opening_hours": "2024-04-13", "name": "Kancelarie Adwokackie - Goryszewska i Augustyniok", "office": "lawyer", "opening_hours:signed": "no", "_id": "node/8349774321"}, "geometry": {"type": "Point", "coordinates": [17.9749283, 50.6715688]}}, {"type": "Feature", "properties": {"check_date:opening_hours": "2024-04-13", "name": "Adwokacka Spółka Partnerska", "office": "lawyer", "opening_hours:signed": "no", "_id": "node/8349774322"}, "geometry": {"type": "Point", "coordinates": [17.9749171, 50.6715522]}}, {"type": "Feature", "properties": {"check_date:opening_hours": "2024-04-13", "name": "Lesta", "office": "insurance", "opening_hours:signed": "no", "_id": "node/8349774324"}, "geometry": {"type": "Point", "coordinates": [17.9738585, 50.6715001]}}, {"type": "Feature", "properties": {"name": "Twoja Iwa", "office": "accountant", "_id": "node/8349774330"}, "geometry": {"type": "Point", "coordinates": [17.9712066, 50.6703338]}}, {"type": "Feature", "properties": {"name": "Agent PZU", "office": "insurance", "opening_hours": "Mo-Th 10:00-17:00; Fr 10:00-16:00", "_id": "node/8349774346"}, "geometry": {"type": "Point", "coordinates": [17.9697516, 50.6724744]}}, {"type": "Feature", "properties": {"name": "Kanon", "office": "accountant", "opening_hours": "Mo-Th 07:30-15:30; Fr 07:30-14:30", "_id": "node/8349774353"}, "geometry": {"type": "Point", "coordinates": [17.9616574, 50.6737663]}}, {"type": "Feature", "properties": {"check_date": "2024-04-03", "name": "Elkom sp. z o.o.", "office": "yes", "_id": "node/8354910441"}, "geometry": {"type": "Point", "coordinates": [17.9635152, 50.6726279]}}, {"type": "Feature", "properties": {"office": "lawyer", "_id": "node/8381388787"}, "geometry": {"type": "Point", "coordinates": [17.9214714, 50.6697594]}}, {"type": "Feature", "properties": {"addr:housenumber": "25", "addr:street": "Rynek", "name": "Covebo", "office": "employment_agency", "_id": "node/8381397845"}, "geometry": {"type": "Point", "coordinates": [17.9230355, 50.6685135]}}, {"type": "Feature", "properties": {"addr:street": "Młyńska", "brand": "Warta", "brand:wikidata": "Q9353838", "name": "WARTA", "office": "insurance", "_id": "node/8381407281"}, "geometry": {"type": "Point", "coordinates": [17.9210576, 50.66875]}}, {"type": "Feature", "properties": {"name": "Timing", "office": "employment_agency", "_id": "node/8381407291"}, "geometry": {"type": "Point", "coordinates": [17.9215604, 50.6688919]}}, {"type": "Feature", "properties": {"check_date": "2024-04-17", "name": "ZAIKS", "office": "yes", "_id": "node/8381407292"}, "geometry": {"type": "Point", "coordinates": [17.921607, 50.6685195]}}, {"type": "Feature", "properties": {"name": "Urząd Miasta Opola", "office": "government", "_id": "node/8381407294"}, "geometry": {"type": "Point", "coordinates": [17.9209605, 50.6689364]}}, {"type": "Feature", "properties": {"contact:email": "psse.opole@pis.gov.pl", "contact:website": "https://www.gov.pl/web/psse-opole", "email": "psse.opole@pis.gov.pl", "fax": "+48 77 442 85 05", "government": "healthcare", "name": "Powiatowa Stacja Sanitarno-Epidemiologiczna", "office": "government", "official_name": "Powiatowa Stacja Sanitarno-Epidemiologiczna w Opolu", "opening_hours": "Mo-Fr 07:30-15:05", "phone": "+48 77 442 85 00", "short_name": "Sanepid w Opolu", "source:office": "Baza teleadresowa administracji zespolonej według stanu na 16.08.2021", "website": "https://www.psseopole.pis.gov.pl", "_id": "node/8498974541"}, "geometry": {"type": "Point", "coordinates": [17.9254791, 50.664228]}}, {"type": "Feature", "properties": {"addr:city": "Opole", "addr:housenumber": "1", "addr:postcode": "45-304", "addr:street": "Piotrkowska", "name": "Centrum Terapii Naturalnych Delfin", "office": "therapist", "opening_hours": "Mo-Fr 10:00-17:00", "_id": "node/8503599067"}, "geometry": {"type": "Point", "coordinates": [17.9678938, 50.6707611]}}, {"type": "Feature", "properties": {"addr:city": "Opole", "addr:housenumber": "4/4", "addr:postcode": "45-064", "addr:street": "Plac Ignacego Daszyńskiego", "name": "Biuro Posłanki na Sejm RP Marceliny Zawiszy", "office": "political_party", "_id": "node/8977434828"}, "geometry": {"type": "Point", "coordinates": [17.9282391, 50.6650344]}}, {"type": "Feature", "properties": {"addr:city": "Dobrzeń Wielki", "addr:housenumber": "44", "addr:postcode": "46-081", "addr:street": "Namysłowska", "admin_level": "7", "amenity": "townhall", "email": "ug@dobrzenwielki.pl", "government": "administrative", "name": "Urząd Gminy Dobrzeń Wielki", "office": "government", "phone": "+48 774695525", "website": "https://dobrzenwielki.pl/", "_id": "node/9482218947"}, "geometry": {"type": "Point", "coordinates": [17.8468546, 50.7666923]}}, {"type": "Feature", "properties": {"government": "public_service", "name": "Miejskie Centrum Świadczeń w Opolu", "office": "government", "opening_hours": "Mo-We 08:00-15:00, Th 08:00-16:30, Fr 08:00-13:30", "phone": "+48 77 44 38 880", "smoking": "no", "website": "https://mcs.opole.pl/", "_id": "node/9649110316"}, "geometry": {"type": "Point", "coordinates": [17.9430071, 50.6698179]}}, {"type": "Feature", "properties": {"government": "administrative", "name": "Wydział Postępowań Administracyjnych KWP w Opolu", "office": "government", "opening_hours": "Mo 09:00-17:00; Tu 08:00-15:00; We off; Th 08:00-15:00; Fr 08:00-15:00; Sa-Su off", "phone": "+48 47 864 23 76", "short_name": "WPA KWP Opole", "website": "https://opolska.policja.gov.pl/op/kwp-opole/wydzialy/4577,WYDZIAL-POSTEPOWAN-ADMINISTRACYJNYCH.html", "_id": "node/10000627060"}, "geometry": {"type": "Point", "coordinates": [17.9192202, 50.6631301]}}, {"type": "Feature", "properties": {"name": "TRISO – Opolskie Stowarzyszenie na Rzecz Rozwoju Dzieci z Trisomią 21", "office": "ngo", "website": "https://triso.eu", "_id": "node/10027735217"}, "geometry": {"type": "Point", "coordinates": [17.927362, 50.6634009]}}, {"type": "Feature", "properties": {"currency:XBT": "yes", "name": "Fidkowscy", "office": "estate_agent", "payment:lightning": "yes", "phone": "+48660800999", "survey:date": "2022-09-28", "website": "https://www.nieruchomosci.fidkowscy.pl/", "_id": "node/10059021176"}, "geometry": {"type": "Point", "coordinates": [17.9187878, 50.6658865]}}, {"type": "Feature", "properties": {"addr:city": "Opole", "addr:housenumber": "3b", "addr:postcode": "45-331", "addr:street": "Tadeusza Rejtana", "email": "1us.opole@mf.gov.pl", "fax": "+48 77 454 42 46", "government": "tax", "name": "Pierwszy Urząd Skarbowy w Opolu", "office": "government", "opening_hours": "Mo 08:00-18:00; Tu-Fr 08:00-15:00; Sa,Su,PH off", "phone": "+48 77 407 45 37", "source:office": "Baza teleadresowa jednostek KAS na dzień 13.12.2022", "website": "https://www.opolskie.kas.gov.pl/pierwszy-urzad-skarbowy-w-opolu", "_id": "node/10302594238"}, "geometry": {"type": "Point", "coordinates": [17.9510036, 50.6665894]}}, {"type": "Feature", "properties": {"email": "kontakt@kuratorium.opole.pl", "fax": "+48 77 452 49 21", "full_name": "Kuratorium Oświaty w Opolu", "government": "education", "name": "Kuratorium Oświaty", "office": "government", "phone": "+48 77 452 45 68", "source:office": "Baza teleadresowa administracji zespolonej według stanu na 16.08.2021", "website": "https://www.kuratorium.opole.pl/", "_id": "node/10544430553"}, "geometry": {"type": "Point", "coordinates": [17.9192578, 50.667007]}}, {"type": "Feature", "properties": {"government": "administrative", "name": "Urząd Miasta Opola - Wydział Spraw Obywatelskich", "office": "government", "_id": "node/10700387416"}, "geometry": {"type": "Point", "coordinates": [17.9248254, 50.6672484]}}, {"type": "Feature", "properties": {"addr:city": "Opole", "addr:housenumber": "1A", "addr:street": "Rotmistrza Witolda Pileckiego", "government": "tax", "name": "Izba Administracji Skarbowej w Opolu", "office": "government", "_id": "node/11289476242"}, "geometry": {"type": "Point", "coordinates": [17.9428205, 50.6702531]}}, {"type": "Feature", "properties": {"government": "tax", "name": "Drugi Urząd Skarbowy w Opolu", "office": "government", "wheelchair": "yes", "_id": "node/11289476243"}, "geometry": {"type": "Point", "coordinates": [17.9427586, 50.6702858]}}, {"type": "Feature", "properties": {"name": "RedKom", "office": "company", "website": "https://redkom.biz/retail/retail-park-opole/", "_id": "node/11356593584"}, "geometry": {"type": "Point", "coordinates": [17.9545789, 50.6671657]}}, {"type": "Feature", "properties": {"addr:city": "Opole", "addr:housenumber": "24", "addr:postcode": "45-066", "addr:street": "Władysława Reymonta", "check_date": "2024-01-09", "government": "prosecutor", "name": "Prokuratura Rejonowa w Opolu", "office": "government", "phone": "+48 77 400 12 00", "website": "https://www.gov.pl/web/po-opole/jednostki-podlegle", "_id": "node/11502911054"}, "geometry": {"type": "Point", "coordinates": [17.9299015, 50.6640252]}}, {"type": "Feature", "properties": {"addr:city": "Opole", "addr:housenumber": "19", "addr:postcode": "45-057", "addr:street": "Ozimska", "check_date": "2024-01-09", "government": "prosecutor", "name": "Prokuratura Rejonowa w Opolu (drugi budynek)", "office": "government", "phone": "+48 77 506 59 20", "website": "https://www.gov.pl/web/po-opole/jednostki-podlegle", "_id": "node/11502911055"}, "geometry": {"type": "Point", "coordinates": [17.9272008, 50.6679811]}}, {"type": "Feature", "properties": {"name": "Stowarzyszenie Ogrodowe \"Na Piaskach\"", "office": "ngo", "_id": "node/11528168432"}, "geometry": {"type": "Point", "coordinates": [17.8284748, 50.6476176]}}, {"type": "Feature", "properties": {"addr:city": "Opole", "addr:housenumber": "40/107", "addr:postcode": "45-058", "addr:street": "Ozimska", "email": "adwokat@zawadzka-lason.pl", "name": "Kancelaria Adwokacka - Adwokat Joanna Zawadzka-Lasoń", "office": "lawyer", "phone": "+48 508 981 791", "website": "https://zawadzka-lason.pl/", "_id": "node/11727955519"}, "geometry": {"type": "Point", "coordinates": [17.931551, 50.6676677]}}, {"type": "Feature", "properties": {"name": "Diecezjalna Fundacja Ochrony Życia", "office": "religion", "website": "https://dfoz.pl/", "_id": "node/12090462051"}, "geometry": {"type": "Point", "coordinates": [17.9198716, 50.6704544]}}, {"type": "Feature", "properties": {"name": "Erdetek", "office": "construction", "website": "https://erdetek.pl/", "_id": "node/12090470239"}, "geometry": {"type": "Point", "coordinates": [17.9291687, 50.6669728]}}, {"type": "Feature", "properties": {"addr:postcode": "45-060", "email": "zs@rcre.opolskie.pl", "internet_access": "wlan", "name": "Centrum Nauki i Eksperymentu \"Zaczarowany Świat\"", "office": "educational_institution", "website": "http://zs.rcre.opolskie.pl", "_id": "node/12090470240"}, "geometry": {"type": "Point", "coordinates": [17.9334883, 50.6657252]}}, {"type": "Feature", "properties": {"addr:city": "Opole", "addr:housenumber": "48", "addr:postcode": "45-052", "addr:street": "Oleska", "internet_access": "wlan", "name": "Biuro Zamówień Publicznych Uniwersytetu Opolskiego", "office": "educational_institution", "opening_hours": "Mo-Fr 07:00-15:00", "phone": "+48 77 452 70 63", "website": "https://zamowienia.uni.opole.pl", "wheelchair": "yes", "_id": "node/12250271537"}, "geometry": {"type": "Point", "coordinates": [17.9317389, 50.6735023]}}, {"type": "Feature", "properties": {"addr:city": "Opole", "addr:housenumber": "31", "addr:postcode": "45-054", "addr:street": "Grunwaldzka", "name": "Uniwersyteckie Centrum Transferu Wiedzy i Technologii UO", "office": "yes", "phone": "+48774527053", "website": "https://transferwiedzy.uni.opole.pl/", "_id": "node/12250316426"}, "geometry": {"type": "Point", "coordinates": [17.9342972, 50.6716636]}}, {"type": "Feature", "properties": {"addr:city": "Opole", "addr:housenumber": "7", "addr:postcode": "45-129", "addr:street": "Kępska", "name": "Agencja Marketingowa REDMUSTANG", "office": "advertising_agency", "opening_hours": "Mo-Fr 08:00-16:00", "phone": "+48505514442", "website": "https://redmustang.pl/", "_id": "node/12395473878"}, "geometry": {"type": "Point", "coordinates": [17.9195889, 50.6956851]}}, {"type": "Feature", "properties": {"denomination": "roman_catholic", "description": "Kancelaria rzymskokatolickiej parafii św. Alberta Chmielowskiego w Opolu", "name": "Kancelaria parafialna", "office": "religion", "religion": "christian", "_id": "node/12495449678"}, "geometry": {"type": "Point", "coordinates": [17.8895516, 50.6701036]}}, {"type": "Feature", "properties": {"name": "Krajowy Ośrodek Wsparcia Rolnictwa Oddział Terenowy w Opolu", "office": "government", "opening_hours": "Mo-Fr 07:30-15:30", "_id": "node/12565355472"}, "geometry": {"type": "Point", "coordinates": [17.9297626, 50.6632416]}}, {"type": "Feature", "properties": {"name": "Generalna Dyrekcja Dróg Krajowych i Autostrad", "office": "government", "_id": "node/12605562812"}, "geometry": {"type": "Point", "coordinates": [17.9199597, 50.6647521]}}, {"type": "Feature", "properties": {"name": "Urząd Dozoru Technicznego", "office": "government", "opening_hours": "Mo-Fr 07:00-15:00; Sa-Su, PH off", "_id": "node/12615596933"}, "geometry": {"type": "Point", "coordinates": [17.9428754, 50.6658523]}}, {"type": "Feature", "properties": {"name": "Najwyższa Izba Kontroli Delegatura w Opolu", "office": "government", "_id": "node/12636049807"}, "geometry": {"type": "Point", "coordinates": [17.9244905, 50.6656685]}}, {"type": "Feature", "properties": {"email": "kancelaria@opole.ap.gov.pl", "name": "Archiwum Państwowe w Opolu", "office": "government", "website": "https://opole.ap.gov.pl/", "_id": "node/12657625948"}, "geometry": {"type": "Point", "coordinates": [17.9216567, 50.6678647]}}, {"type": "Feature", "properties": {"denomination": "greek_catholic", "description": "Kancelaria greckokatolickich parafii Świętych Apostołów Piotra i Pawła w Brzegu, parafii bł. Jozafaty Hordaszewskiej w Nysie i parafii Przemienienia Pańskiego w Opolu", "name": "Kancelaria parafialna", "office": "religion", "religion": "christian", "_id": "node/12688146944"}, "geometry": {"type": "Point", "coordinates": [17.8910402, 50.6705715]}}, {"type": "Feature", "properties": {"addr:housenumber": "154", "addr:street": "Wrocławska", "name": "Play", "office": "telecommunication", "_id": "node/12785576801"}, "geometry": {"type": "Point", "coordinates": [17.8789356, 50.6818032]}}, {"type": "Feature", "properties": {"addr:city": "Opole", "addr:housenumber": "40/411-412", "addr:postcode": "45-058", "addr:street": "Ozimska", "email": "kancelaria@radcaborowy.pl", "image": "https://radcaborowy.pl/wp-content/uploads/2024/05/DSC_0682r_small-684x1024.webp", "level": "4", "name": "Sebastian Borowy - Radca Prawny Opole", "office": "lawyer", "opening_hours": "Mo-Fr 08:00-18:00", "phone": "+48 511 053 307", "ref:vatin": "7532424402", "website": "https://radcaborowy.pl/", "_id": "node/13279699792"}, "geometry": {"type": "Point", "coordinates": [17.931559, 50.667638]}}, {"type": "Feature", "properties": {"government": "yes", "name": "Wydział Promocji Urzędu Miasta Opole", "office": "government", "_id": "node/13468384746"}, "geometry": {"type": "Point", "coordinates": [17.9202641, 50.6687115]}}, {"type": "Feature", "properties": {"name": "Wydział ds. Europejskich i Planowania Rozwoju Urzędu Miasta Opole", "office": "government", "_id": "node/13468384747"}, "geometry": {"type": "Point", "coordinates": [17.9202559, 50.6688107]}}, {"type": "Feature", "properties": {"government": "tax", "name": "Opolski Urząd Celno-Skarbowy w Opolu", "office": "government", "_id": "node/13726449860"}, "geometry": {"type": "Point", "coordinates": [17.9346838, 50.6707929]}}, {"type": "Feature", "properties": {"government": "tax", "name": "Opolski Urząd Celno-Skarbowy w Opolu", "office": "government", "opening_hours": "Mo-Fr 06:00-16:00; Sa-Su, PH off", "_id": "node/13726449862"}, "geometry": {"type": "Point", "coordinates": [17.943601, 50.6635629]}}, {"type": "Feature", "properties": {"government": "tax", "name": "Opolski Urząd Celno-Skarbowy w Opolu", "office": "government", "opening_hours": "Mo-Fr 07:00-19:00; Sa-Su, PH off", "_id": "node/13726449864"}, "geometry": {"type": "Point", "coordinates": [17.9659047, 50.6665213]}}]}