{"type": "FeatureCollection", "features": [{"type": "Feature", "properties": {"amenity": "doctors", "_id": "node/860567152"}, "geometry": {"type": "Point", "coordinates": [17.9532149, 50.652509]}}, {"type": "Feature", "properties": {"addr:city": "Komprachcice", "addr:housenumber": "2", "addr:postcode": "46-070", "addr:street": "Księdza Prałata Bolesława Bilińskiego", "amenity": "doctors", "name": "Niepubliczny Zakład Opieki Zdrowotnej MEDICOM", "_id": "node/1861966985"}, "geometry": {"type": "Point", "coordinates": [17.8250899, 50.6335831]}}, {"type": "Feature", "properties": {"addr:city": "Opole", "addr:housenumber": "2", "addr:postcode": "45-334", "addr:street": "Tarnopolska", "amenity": "pharmacy", "name": "Apteka Aleja Witosa", "opening_hours": "Mo-Fr 07:00-21:00; Sa 07:00-20:00; Su 08:00-20:00", "ref:csioz": "1108912", "_id": "node/1948733516"}, "geometry": {"type": "Point", "coordinates": [17.9740005, 50.6781466]}}, {"type": "Feature", "properties": {"addr:city": "Opole", "addr:housenumber": "18", "addr:postcode": "45-268", "addr:street": "Stefana Grota-Roweckiego", "amenity": "pharmacy", "dispensing": "yes", "name": "Apteka Zdrowit", "opening_hours": "Mo-Fr 08:00-19:00; Sa 08:00-15:00", "payment:coins": "yes", "payment:maestro": "yes", "payment:mastercard": "yes", "payment:notes": "yes", "payment:visa": "yes", "payment:visa_debit": "yes", "payment:visa_electron": "yes", "ref:csioz": "1194288", "source": "UM Opole", "wheelchair": "yes", "_id": "node/2171502972"}, "geometry": {"type": "Point", "coordinates": [17.9450463, 50.6805056]}}, {"type": "Feature", "properties": {"addr:city": "Opole", "addr:housenumber": "6", "addr:postcode": "45-273", "addr:street": "Kazimierza Sosnkowskiego", "amenity": "pharmacy", "name": "Witaminka", "opening_hours": "Mo-Fr 08:00-19:00; Sa 08:00-14:00", "ref:csioz": "1108865", "_id": "node/2290796455"}, "geometry": {"type": "Point", "coordinates": [17.9569602, 50.6732196]}}, {"type": "Feature", "properties": {"addr:city": "Opole", "addr:housenumber": "2A", "addr:postcode": "45-305", "addr:street": "Piotrkowska", "amenity": "pharmacy", "check_date:opening_hours": "2026-01-24", "healthcare": "pharmacy", "name": "Apteka Eskulap", "opening_hours": "Mo-Fr 07:30-20:00; Sa 08:00-15:00", "ref:csioz": "1108794", "shop": "chemist", "_id": "node/2325396972"}, "geometry": {"type": "Point", "coordinates": [17.9695833, 50.6705831]}}, {"type": "Feature", "properties": {"amenity": "doctors", "emergency": "no", "name": "Megamed", "_id": "node/2344921753"}, "geometry": {"type": "Point", "coordinates": [17.9290441, 50.680782]}}, {"type": "Feature", "properties": {"addr:city": "Opole", "addr:housenumber": "117", "addr:postcode": "45-221", "addr:street": "Chabrów", "amenity": "pharmacy", "name": "Eskulap", "ref:csioz": "1108528", "_id": "node/2344921758"}, "geometry": {"type": "Point", "coordinates": [17.928851, 50.680791]}}, {"type": "Feature", "properties": {"addr:city": "Opole", "addr:housenumber": "58", "addr:postcode": "45-221", "addr:street": "Chabrów", "amenity": "pharmacy", "name": "Eurofarm", "ref:csioz": "1108515", "_id": "node/2344921768"}, "geometry": {"type": "Point", "coordinates": [17.9327283, 50.6811757]}}, {"type": "Feature", "properties": {"alt_name": "Jolanta Jarka", "amenity": "dentist", "name": "Ortodonta Jolanta Jarka", "_id": "node/2469465201"}, "geometry": {"type": "Point", "coordinates": [17.9187082, 50.6742706]}}, {"type": "Feature", "properties": {"addr:city": "Górki", "addr:housenumber": "9", "addr:postcode": "46-060", "addr:street": "Opolska", "amenity": "pharmacy", "healthcare": "pharmacy", "name": "Punkt apteczny", "ref:csioz": "1116003", "_id": "node/3268928841"}, "geometry": {"type": "Point", "coordinates": [17.8995506, 50.6267951]}}, {"type": "Feature", "properties": {"addr:city": "Opole", "addr:housenumber": "19", "addr:postcode": "45-057", "addr:street": "Ozimska", "amenity": "pharmacy", "email": "ozimska@multifarm.pl", "healthcare": "pharmacy", "name": "Multifarm Ozimska", "phone": "+48774232345", "ref:csioz": "1108747", "_id": "node/3355734002"}, "geometry": {"type": "Point", "coordinates": [17.9276324, 50.6680333]}}, {"type": "Feature", "properties": {"amenity": "doctors", "healthcare": "doctor", "name": "\"Medicus w Opole\" Sp. z o.o.", "opening_hours": "Mo-Fr 07:30-18:30", "phone": "+48 77 44 270 10", "website": "http://medicus.opole.pl", "_id": "node/3445365646"}, "geometry": {"type": "Point", "coordinates": [17.9386303, 50.6664267]}}, {"type": "Feature", "properties": {"addr:city": "Opole", "addr:housenumber": "44", "addr:street": "Krakowska", "amenity": "pharmacy", "brand": "Dr. Max", "brand:wikidata": "Q56317371", "brand:wikipedia": "fr:Dr.Max", "contact:phone": "+48 77 423 05 00", "dispensing": "yes", "drive_through": "no", "healthcare": "pharmacy", "name": "Dr. Max", "opening_hours": "24/7", "_id": "node/3649612736"}, "geometry": {"type": "Point", "coordinates": [17.92535, 50.6635347]}}, {"type": "Feature", "properties": {"amenity": "pharmacy", "dispensing": "yes", "drive_through": "no", "name": "Apteka w Wojewódzkim", "opening_hours": "Mo-Fr 08:00-18:00; Sa 10:00-15:00", "_id": "node/3650469812"}, "geometry": {"type": "Point", "coordinates": [17.9354988, 50.6710956]}}, {"type": "Feature", "properties": {"addr:city": "Opole", "addr:housenumber": "22", "addr:postcode": "45-058", "addr:street": "Ozimska", "amenity": "pharmacy", "check_date": "2024-12-14", "contact:phone": "+48774513455", "healthcare": "pharmacy", "name": "Apteka Pod Lwem", "ref:csioz": "1108752", "_id": "node/3818418876"}, "geometry": {"type": "Point", "coordinates": [17.9290295, 50.667504]}}, {"type": "Feature", "properties": {"addr:city": "Opole", "addr:housenumber": "14", "addr:postcode": "45-066", "addr:street": "Władysława Reymonta", "amenity": "pharmacy", "contact:email": "aptekieskulap@op.pl", "contact:phone": "+48 77 441 86 77", "dispensing": "yes", "healthcare": "pharmacy", "name": "Apteka ESKULAP", "opening_hours": "Mo-Fr 07:30-20:00; Sa 08:00-15:00", "ref:csioz": "1108833", "website": "https://www.aptekieskulap.pl/", "_id": "node/3818418877"}, "geometry": {"type": "Point", "coordinates": [17.9294686, 50.6652749]}}, {"type": "Feature", "properties": {"amenity": "doctors", "contact:email": "euromedyk@euromedyk.pl", "contact:fax": "+48 77 454 66 17", "contact:phone": "+48 77 441 32 95", "name": "Przychodnia Rehabilitacyjna Euromedyk", "opening_hours": "Mo-Fr 08:00-18:00", "website": "https://www.euromedyk.pl/", "_id": "node/3826564765"}, "geometry": {"type": "Point", "coordinates": [17.9272196, 50.6682161]}}, {"type": "Feature", "properties": {"addr:city": "Opole", "addr:housenumber": "32", "addr:postcode": "45-087", "addr:street": "Powstańców Śląskich", "amenity": "dentist", "name": "Malottki Clinic", "website": "www.malottkiclinic.com", "_id": "node/3920718767"}, "geometry": {"type": "Point", "coordinates": [17.9201974, 50.6608924]}}, {"type": "Feature", "properties": {"amenity": "doctors", "_id": "node/4368669425"}, "geometry": {"type": "Point", "coordinates": [18.0217081, 50.7536176]}}, {"type": "Feature", "properties": {"amenity": "pharmacy", "_id": "node/4396318716"}, "geometry": {"type": "Point", "coordinates": [17.9152627, 50.6693588]}}, {"type": "Feature", "properties": {"addr:city": "Opole", "addr:housenumber": "11", "addr:postcode": "45-706", "addr:street": "Plac Józefa Piłsudskiego", "amenity": "pharmacy", "ref:csioz": "1108806", "_id": "node/4396318721"}, "geometry": {"type": "Point", "coordinates": [17.9140509, 50.6690376]}}, {"type": "Feature", "properties": {"amenity": "doctors", "healthcare": "doctor", "name": "Przychodnia studencka", "wheelchair": "yes", "_id": "node/4542694254"}, "geometry": {"type": "Point", "coordinates": [17.9315517, 50.6718995]}}, {"type": "Feature", "properties": {"addr:city": "Opole", "addr:housenumber": "13", "addr:postcode": "45-056", "addr:street": "Plac Teatralny", "amenity": "pharmacy", "healthcare": "pharmacy", "name": "i-Pharm", "ref:csioz": "1108811", "wheelchair": "yes", "_id": "node/4600619698"}, "geometry": {"type": "Point", "coordinates": [17.9307582, 50.6684297]}}, {"type": "Feature", "properties": {"amenity": "doctors", "contact:phone": "+48 77 4552535", "counselling_type": "drugs", "health_facility:type": "office", "health_service": "support", "name": "Wojewódzki Ośrodek Terapii Uzależnień w Współuzależnień Opolu", "opening_hours": "Mo-Fr 08:00-20:00", "_id": "node/4783240493"}, "geometry": {"type": "Point", "coordinates": [17.9644401, 50.6625626]}}, {"type": "Feature", "properties": {"amenity": "doctors", "healthcare": "doctor", "name:signed": "no", "_id": "node/5209312644"}, "geometry": {"type": "Point", "coordinates": [17.9359877, 50.6687784]}}, {"type": "Feature", "properties": {"addr:city": "Opole", "addr:housenumber": "72", "addr:postcode": "45-285", "addr:street": "Szarych Szeregów", "amenity": "pharmacy", "name": "Nowa", "opening_hours": "Mo-Fr 08:00-19:00; Sa 08:30-14:00", "ref:csioz": "1197672", "_id": "node/5209312661"}, "geometry": {"type": "Point", "coordinates": [17.9560846, 50.6735512]}}, {"type": "Feature", "properties": {"amenity": "dentist", "name": "Praxi-Dent", "opening_hours": "Mo-Fr 09:00-21:00; Sa 09:00-15:00", "website": "http://praxi-dent.pl", "_id": "node/6181956385"}, "geometry": {"type": "Point", "coordinates": [17.8967893, 50.6625223]}}, {"type": "Feature", "properties": {"addr:city": "Opole", "addr:housenumber": "16", "addr:postcode": "45-040", "addr:street": "Plac Mikołaja Kopernika", "amenity": "pharmacy", "dispensing": "yes", "healthcare": "pharmacy", "level": "0", "name": "Apteka Centrum", "ref:csioz": "1177390", "_id": "node/6820980679"}, "geometry": {"type": "Point", "coordinates": [17.9265507, 50.6705297]}}, {"type": "Feature", "properties": {"addr:city": "Opole", "addr:housenumber": "22", "addr:postcode": "45-317", "addr:street": "Koszalińska", "amenity": "dentist", "healthcare": "dentist", "name": "Dental Complex", "operator": "Karoń", "_id": "node/8335378771"}, "geometry": {"type": "Point", "coordinates": [17.9661668, 50.6740478]}}, {"type": "Feature", "properties": {"amenity": "doctors", "healthcare": "doctor", "healthcare:speciality": "gynaecology", "name": "Opolskie Centrum Badań Prenatalnych", "_id": "node/8335378778"}, "geometry": {"type": "Point", "coordinates": [17.9695563, 50.6748584]}}, {"type": "Feature", "properties": {"amenity": "dentist", "healthcare": "dentist", "name": "Ambasada Uśmiechu", "_id": "node/8335378780"}, "geometry": {"type": "Point", "coordinates": [17.9699156, 50.6741634]}}, {"type": "Feature", "properties": {"addr:city": "Opole", "addr:housenumber": "1", "addr:postcode": "45-401", "addr:street": "Bielska", "amenity": "pharmacy", "check_date:opening_hours": "2026-01-24", "dispensing": "yes", "healthcare": "pharmacy", "name": "Zdrowit", "opening_hours": "Mo-Fr 07:00-20:00; Sa 07:00-15:00", "ref:csioz": "1193644", "_id": "node/8335378798"}, "geometry": {"type": "Point", "coordinates": [17.9699195, 50.6708709]}}, {"type": "Feature", "properties": {"addr:housenumber": "16", "addr:street": "Kielecka", "amenity": "dentist", "healthcare": "dentist", "name": "Prywatny Gabinet Stomatologiczny", "opening_hours": "Mo,Tu,Th,Fr 14:00-19:00", "operator": "Iwona Płaszewska", "_id": "node/8349747010"}, "geometry": {"type": "Point", "coordinates": [17.9727888, 50.6734771]}}, {"type": "Feature", "properties": {"amenity": "dentist", "healthcare": "dentist", "name": "Wittek - stomatologia", "opening_hours": "Mo-Th 09:00-20:00; Fr 09:00-15:00", "_id": "node/8349774333"}, "geometry": {"type": "Point", "coordinates": [17.9699265, 50.6708197]}}, {"type": "Feature", "properties": {"amenity": "doctors", "healthcare": "doctor", "name": "La Cosmetica", "operator": "NZOZ Eliasmed", "_id": "node/8349774342"}, "geometry": {"type": "Point", "coordinates": [17.9676831, 50.6707249]}}, {"type": "Feature", "properties": {"amenity": "dentist", "healthcare": "dentist", "name": "Agnieszka Zużewicz", "_id": "node/8349774352"}, "geometry": {"type": "Point", "coordinates": [17.964904, 50.6722349]}}, {"type": "Feature", "properties": {"amenity": "doctors", "healthcare": "doctor", "name": "Projekt zdrowie - dietetyk", "_id": "node/8381388782"}, "geometry": {"type": "Point", "coordinates": [17.9203801, 50.669655]}}, {"type": "Feature", "properties": {"amenity": "doctors", "healthcare": "doctor", "_id": "node/8381388795"}, "geometry": {"type": "Point", "coordinates": [17.9208738, 50.6695428]}}, {"type": "Feature", "properties": {"amenity": "pharmacy", "dispensing": "yes", "healthcare": "pharmacy", "name": "Eskulap", "opening_hours": "Mo-Fr 08:30-18:30; Sa 08:30-15:00", "ref:csioz": "1230811", "_id": "node/8504841269"}, "geometry": {"type": "Point", "coordinates": [17.8660821, 50.6478633]}}, {"type": "Feature", "properties": {"addr:city": "Opole", "addr:housenumber": "98", "addr:postcode": "45-642", "addr:street": "Oświęcimska", "amenity": "pharmacy", "healthcare": "pharmacy", "name": "Galen", "opening_hours": "Mo-Fr 08:30-18:30; Sa 08:30-15:00", "ref:csioz": "1122033", "_id": "node/8904961326"}, "geometry": {"type": "Point", "coordinates": [17.9701715, 50.6095131]}}, {"type": "Feature", "properties": {"addr:city": "Dobrzeń Wielki", "addr:housenumber": "40", "addr:postcode": "46-081", "addr:street": "Namysłowska", "amenity": "pharmacy", "name": "Przyjazna", "ref:csioz": "1181450", "_id": "node/9498802475"}, "geometry": {"type": "Point", "coordinates": [17.846411, 50.7657851]}}, {"type": "Feature", "properties": {"addr:city": "Opole", "addr:housenumber": "1", "addr:postcode": "45-349", "addr:street": "Fabryczna", "amenity": "pharmacy", "dispensing": "yes", "name": "Apteka Plebiscytowa Multifarm Opolskie Apteki", "ref:csioz": "1192691", "_id": "node/9611261163"}, "geometry": {"type": "Point", "coordinates": [17.9426962, 50.6629654]}}, {"type": "Feature", "properties": {"addr:city": "Opole", "addr:housenumber": "9A", "addr:postcode": "45-670", "addr:street": "Augusta Bassego", "amenity": "pharmacy", "dispensing": "yes", "name": "Apteka Pod Złotym Wężem", "ref:csioz": "1108502", "_id": "node/9611261164"}, "geometry": {"type": "Point", "coordinates": [17.9635611, 50.6277376]}}, {"type": "Feature", "properties": {"addr:city": "Opole", "addr:housenumber": "21", "addr:postcode": "45-710", "addr:street": "Niemodlińska", "amenity": "pharmacy", "dispensing": "yes", "name": "Za Odrą", "ref:csioz": "1108695", "_id": "node/9611261165"}, "geometry": {"type": "Point", "coordinates": [17.9046142, 50.6663045]}}, {"type": "Feature", "properties": {"addr:city": "Opole", "addr:housenumber": "5", "addr:postcode": "45-062", "addr:street": "Tadeusza Kościuszki", "amenity": "pharmacy", "dispensing": "yes", "name": "Apteka Społeczna Na Kościuszki Grupa Nowa Farmacja", "opening_hours": "Mo-Fr 07:30-20:00; Sa 08:00-16:00", "ref:csioz": "1212443", "_id": "node/9611261166"}, "geometry": {"type": "Point", "coordinates": [17.9254737, 50.6659798]}}, {"type": "Feature", "properties": {"addr:city": "Opole", "addr:housenumber": "48-50", "addr:postcode": "45-006", "addr:street": "Książąt Opolskich", "amenity": "pharmacy", "dispensing": "yes", "healthcare": "pharmacy", "name": "Api-Med", "ref:csioz": "1222317", "_id": "node/9611261167"}, "geometry": {"type": "Point", "coordinates": [17.9191142, 50.6730686]}}, {"type": "Feature", "properties": {"addr:city": "Opole", "addr:housenumber": "1", "addr:postcode": "45-920", "addr:street": "Janiny Kłopockiej", "amenity": "pharmacy", "dispensing": "yes", "name": "Apteka Przyjazna 5", "ref:csioz": "1227948", "_id": "node/9611261168"}, "geometry": {"type": "Point", "coordinates": [17.8999584, 50.7264535]}}, {"type": "Feature", "properties": {"addr:city": "Opole", "addr:housenumber": "16", "addr:postcode": "45-273", "addr:street": "Kazimierza Sosnkowskiego", "amenity": "pharmacy", "dispensing": "yes", "name": "Multi Lek", "opening_hours": "Mo-Fr 08:00-21:00; Sa 09:00-20:00", "ref:csioz": "1108879", "_id": "node/9611261170"}, "geometry": {"type": "Point", "coordinates": [17.9468858, 50.67425]}}, {"type": "Feature", "properties": {"addr:city": "Opole", "addr:housenumber": "18", "addr:postcode": "45-714", "addr:street": "Licealna", "amenity": "pharmacy", "dispensing": "yes", "name": "Dr. Max", "opening_hours": "Mo-Su 07:30-18:00", "ref:csioz": "1108667", "_id": "node/9611261173"}, "geometry": {"type": "Point", "coordinates": [17.9095361, 50.6691656]}}, {"type": "Feature", "properties": {"addr:city": "Opole", "addr:housenumber": "15", "addr:postcode": "45-401", "addr:street": "Krzemieniecka", "amenity": "pharmacy", "dispensing": "yes", "healthcare": "pharmacy", "name": "Apteka Aleja Solidarności Multifarm Opolskie Apteki", "opening_hours": "Mo-Sa 08:00-20:00", "operator": "Multifarm Opolskie Apteki Sp. z o.o.", "ref:csioz": "1219301", "_id": "node/9611261174"}, "geometry": {"type": "Point", "coordinates": [17.970898, 50.6756888]}}, {"type": "Feature", "properties": {"addr:city": "Opole", "addr:housenumber": "54", "addr:postcode": "45-865", "addr:street": "Niemodlińska", "amenity": "pharmacy", "dispensing": "yes", "name": "Apteka Niemodlińska Multifarm Opolskie Apteki", "ref:csioz": "1108705", "_id": "node/9611261175"}, "geometry": {"type": "Point", "coordinates": [17.8989145, 50.6639957]}}, {"type": "Feature", "properties": {"addr:city": "Opole", "addr:housenumber": "45/47", "addr:postcode": "45-018", "addr:street": "Krakowska", "amenity": "pharmacy", "check_date": "2024-12-14", "dispensing": "yes", "name": "Super-Pharm", "opening_hours": "Mo-Fr 09:00-20:00; Sa 09:00-19:00; Su 10:00-17:00", "ref:csioz": "1108646", "_id": "node/9611370102"}, "geometry": {"type": "Point", "coordinates": [17.9251733, 50.6648305]}}, {"type": "Feature", "properties": {"addr:city": "Opole", "addr:housenumber": "53", "addr:postcode": "45-368", "addr:street": "Ozimska", "amenity": "pharmacy", "dispensing": "yes", "ref:csioz": "1108760", "_id": "node/9611370103"}, "geometry": {"type": "Point", "coordinates": [17.9373801, 50.6681592]}}, {"type": "Feature", "properties": {"addr:city": "Opole", "addr:housenumber": "11", "addr:postcode": "45-062", "addr:street": "Tadeusza Kościuszki", "amenity": "pharmacy", "dispensing": "yes", "name": "Dr. Max", "opening_hours": "Mo-Fr 08:00-19:00; Sa 08:00-14:00", "ref:csioz": "1108609", "_id": "node/9611370104"}, "geometry": {"type": "Point", "coordinates": [17.9263133, 50.6661379]}}, {"type": "Feature", "properties": {"addr:city": "Opole", "addr:housenumber": "44", "addr:postcode": "45-525", "addr:street": "Strzelecka", "amenity": "pharmacy", "dispensing": "yes", "name": "Api-Med", "ref:csioz": "1108898", "_id": "node/9611370105"}, "geometry": {"type": "Point", "coordinates": [17.9848552, 50.6458872]}}, {"type": "Feature", "properties": {"addr:city": "Opole", "addr:housenumber": "2", "addr:postcode": "45-273", "addr:street": "Emila Fieldorfa", "amenity": "pharmacy", "dispensing": "yes", "name": "Apteka Dbam O Zdrowie", "ref:csioz": "1108544", "_id": "node/9611370107"}, "geometry": {"type": "Point", "coordinates": [17.9489694, 50.6847393]}}, {"type": "Feature", "properties": {"addr:city": "Opole", "addr:housenumber": "31", "addr:postcode": "45-052", "addr:street": "Oleska", "amenity": "pharmacy", "branch": "Aretuza", "brand": "Dbam o Zdrowie", "brand:wikidata": "Q62563833", "dispensing": "yes", "healthcare": "pharmacy", "name": "Dbam o Zdrowie", "ref:csioz": "1108718", "short_name": "DOZ", "_id": "node/9611370108"}, "geometry": {"type": "Point", "coordinates": [17.9297841, 50.6732709]}}, {"type": "Feature", "properties": {"addr:city": "Opole", "addr:housenumber": "21", "addr:postcode": "45-401", "addr:street": "Bielska", "amenity": "pharmacy", "dispensing": "yes", "email": "aptekabielska@op.pl", "healthcare": "pharmacy", "name": "Apteka Eskulap", "opening_hours": "Mo-Fr 08:00-20:00; Sa 8:00-15:00", "operator": "\"AGAMAG\" s.c.", "phone": "+48 77 307 09 05", "ref:csioz": "1182103", "website": "https://aptekieskulap.pl/nasze-apteki/apteka-eskulap-bielska/", "_id": "node/9611370109"}, "geometry": {"type": "Point", "coordinates": [17.9702312, 50.6723364]}}, {"type": "Feature", "properties": {"addr:city": "Opole", "addr:housenumber": "13A", "addr:postcode": "45-716", "addr:street": "Stanisława Spychalskiego", "amenity": "pharmacy", "dispensing": "yes", "name": "Apteka Opolska", "ref:csioz": "1205187", "_id": "node/9611370110"}, "geometry": {"type": "Point", "coordinates": [17.9130712, 50.6677223]}}, {"type": "Feature", "properties": {"addr:city": "Opole", "addr:housenumber": "30", "addr:postcode": "45-355", "addr:street": "1 Maja", "amenity": "pharmacy", "dispensing": "yes", "healthcare": "pharmacy", "name": "Apteka Libra", "ref:csioz": "1108973", "_id": "node/9611370111"}, "geometry": {"type": "Point", "coordinates": [17.9417816, 50.6639192]}}, {"type": "Feature", "properties": {"addr:city": "Opole", "addr:housenumber": "7", "addr:postcode": "45-076", "addr:street": "Armii Krajowej", "amenity": "pharmacy", "dispensing": "yes", "drive_through": "no", "healthcare": "pharmacy", "name": "Multifarm", "opening_hours": "Mo-Fr 08:00-18:00", "ref:csioz": "1108491", "_id": "node/9611370112"}, "geometry": {"type": "Point", "coordinates": [17.9330778, 50.661289]}}, {"type": "Feature", "properties": {"addr:city": "Opole", "addr:housenumber": "171", "addr:postcode": "45-864", "addr:street": "Alojzego Dambonia", "amenity": "pharmacy", "dispensing": "yes", "healthcare": "pharmacy", "name": "Apteka Zachodnia", "ref:csioz": "1108680", "_id": "node/9611370113"}, "geometry": {"type": "Point", "coordinates": [17.889404, 50.6622329]}}, {"type": "Feature", "properties": {"addr:city": "Opole", "addr:housenumber": "46", "addr:postcode": "45-759", "addr:street": "Walerego Wróblewskiego", "amenity": "pharmacy", "dispensing": "yes", "name": "Przyjazna", "ref:csioz": "1108957", "_id": "node/9611370114"}, "geometry": {"type": "Point", "coordinates": [17.8944513, 50.65974]}}, {"type": "Feature", "properties": {"addr:city": "Opole", "addr:housenumber": "17", "addr:postcode": "45-267", "addr:street": "Stefana Grota-Roweckiego", "amenity": "pharmacy", "dispensing": "yes", "name": "Apteka U Wysoczańskiej", "ref:csioz": "1108566", "_id": "node/9611370115"}, "geometry": {"type": "Point", "coordinates": [17.9461616, 50.68043]}}, {"type": "Feature", "properties": {"addr:city": "Opole", "addr:housenumber": "13", "addr:postcode": "45-068", "addr:street": "1 Maja", "amenity": "pharmacy", "dispensing": "yes", "name": "Apteka Gemini", "opening_hours": "Mo-Fr 08:00-20:00; Sa off; Sa 09:00-18:00", "ref:csioz": "1221618", "_id": "node/9611370116"}, "geometry": {"type": "Point", "coordinates": [17.9282042, 50.6633837]}}, {"type": "Feature", "properties": {"addr:city": "Opole", "addr:housenumber": "33", "addr:postcode": "45-475", "addr:street": "Orzechowa", "amenity": "pharmacy", "dispensing": "yes", "ref:csioz": "1108726", "_id": "node/9611400617"}, "geometry": {"type": "Point", "coordinates": [17.9871592, 50.6683615]}}, {"type": "Feature", "properties": {"addr:city": "Luboszyce", "addr:housenumber": "7", "addr:postcode": "46-022", "addr:street": "Opolska", "amenity": "pharmacy", "dispensing": "yes", "name": "Eurofarm", "ref:csioz": "1109929", "_id": "node/9631288477"}, "geometry": {"type": "Point", "coordinates": [17.9577246, 50.7282926]}}, {"type": "Feature", "properties": {"addr:city": "Zawada", "addr:housenumber": "54", "addr:postcode": "46-022", "addr:street": "Bocianowa", "amenity": "pharmacy", "dispensing": "yes", "name": "Apteka Multifarm Opolskie Apteki", "ref:csioz": "1225435", "_id": "node/9631288482"}, "geometry": {"type": "Point", "coordinates": [18.0008706, 50.7190589]}}, {"type": "Feature", "properties": {"addr:city": "Zawada", "addr:housenumber": "1", "addr:postcode": "46-022", "addr:street": "Dębowa", "amenity": "pharmacy", "brand": "Super-Pharm", "brand:wikidata": "Q13220217", "dispensing": "yes", "healthcare": "pharmacy", "name": "Super-Pharm", "opening_hours": "Mo-Sa 09:00-21:00; Su 10:00-20:00", "ref:csioz": "1109592", "_id": "node/9631288485"}, "geometry": {"type": "Point", "coordinates": [17.9811577, 50.6863203]}}, {"type": "Feature", "properties": {"addr:city": "Dobrzeń Wielki", "addr:country": "PL", "addr:housenumber": "34", "addr:postcode": "46-081", "addr:street": "Namysłowska", "amenity": "pharmacy", "dispensing": "yes", "healthcare": "pharmacy", "name": "St. Rochus", "ref:csioz": "1106919", "_id": "node/9631288486"}, "geometry": {"type": "Point", "coordinates": [17.8453106, 50.7642254]}}, {"type": "Feature", "properties": {"addr:city": "Osowiec", "addr:housenumber": "4", "addr:postcode": "45-023", "addr:street": "Oleska", "amenity": "pharmacy", "dispensing": "yes", "ref:csioz": "1108985", "_id": "node/9631313691"}, "geometry": {"type": "Point", "coordinates": [18.0214754, 50.7537125]}}, {"type": "Feature", "properties": {"addr:city": "Żelazna", "addr:housenumber": "33", "addr:postcode": "49-120", "addr:street": "Opolska", "amenity": "pharmacy", "dispensing": "yes", "name": "Punkt Apteczny Eskulap", "ref:csioz": "1110136", "_id": "node/9631313700"}, "geometry": {"type": "Point", "coordinates": [17.8516594, 50.7288366]}}, {"type": "Feature", "properties": {"addr:housenumber": "14B", "addr:street": "Opolska", "amenity": "doctors", "name": "Fizjosteo", "phone": "+48 664 323 053", "_id": "node/11114258633"}, "geometry": {"type": "Point", "coordinates": [17.8291588, 50.6377449]}}, {"type": "Feature", "properties": {"amenity": "doctors", "name": "Zespół poradni specjalistycznych MSWiA", "_id": "node/11611625380"}, "geometry": {"type": "Point", "coordinates": [17.9253901, 50.663367]}}, {"type": "Feature", "properties": {"addr:city": "Opole", "addr:housenumber": "26", "addr:postcode": "45-418", "addr:street": "Aleja Wincentego Witosa", "amenity": "pharmacy", "dispensing": "yes", "drive_through": "no", "email": "aptekacentralna.opole@gmail.com", "healthcare": "pharmacy", "level": "-1", "name": "Apteka Centralna", "not:name": "Apteka Witosa", "opening_hours": "Mo-Fr 08:00-20:00; Sa 09:00-17:00", "payment:apple_pay": "yes", "payment:blik": "yes", "payment:cards": "yes", "payment:cash": "yes", "payment:coins": "yes", "payment:contactless": "yes", "payment:credit_cards": "yes", "payment:google_pay": "yes", "payment:mastercard": "yes", "payment:mastercard_contactless": "yes", "payment:notes": "yes", "payment:visa": "yes", "phone": "+48 77 452 08 99", "ref:csioz": "1108488", "wheelchair": "yes", "_id": "node/11627271060"}, "geometry": {"type": "Point", "coordinates": [17.9763211, 50.6772434]}}, {"type": "Feature", "properties": {"addr:city": "Opole", "addr:housenumber": "26", "addr:street": "Aleja Wincentego Witosa", "amenity": "clinic", "healthcare": "clinic", "healthcare:speciality": "general;paediatrics;geriatrics", "name": "Poradnia POZ Witosa", "opening_hours": "Mo-Th 08:00-15:00; Fr 8:00-18:00", "operator": "Centrum Zdrowia w Opolu Sp. z o. o.", "phone": "+48 77 451 52 80; +48 77 451 52 83", "website": "https://centrum.przychodniemiastaopole.pl/poradnie-1/poradnia-poz-witosa", "_id": "node/11819513456"}, "geometry": {"type": "Point", "coordinates": [17.9767577, 50.6775191]}}, {"type": "Feature", "properties": {"amenity": "pharmacy", "healthcare": "pharmacy", "name": "Apteka Przyjazna", "opening_hours": "Mo-Sa 08:00-20:00; Su 10:00-18:00", "_id": "node/11942697103"}, "geometry": {"type": "Point", "coordinates": [17.9533662, 50.6667123]}}, {"type": "Feature", "properties": {"addr:city": "Opole", "addr:housenumber": "30", "addr:postcode": "45-047", "addr:street": "Ludwika Waryńskiego", "amenity": "pharmacy", "dispensing": "yes", "email": "apimedopole@gmail.com", "healthcare": "pharmacy", "name": "API-MED", "opening_hours": "Mo-Su 07:30-19:00, Sa 08:00-14:00", "phone": "+48 77 453 92 46", "ref:csioz": "1108920", "start_date": "1993-05-06", "_id": "node/12141752390"}, "geometry": {"type": "Point", "coordinates": [17.923213, 50.6738619]}}, {"type": "Feature", "properties": {"amenity": "pharmacy", "brand": "Ziko Apteka", "brand:wikidata": "Q63432892", "check_date": "2025-03-22", "healthcare": "pharmacy", "name": "Ziko Apteka", "opening_hours": "Mo-Fr 08:00-20:00; Sa 08:00-18:00", "short_name": "Ziko", "website": "https://zikoapteka.pl/apteki/opole/krakowska-31/", "_id": "node/12690757494"}, "geometry": {"type": "Point", "coordinates": [17.9246588, 50.6665572]}}, {"type": "Feature", "properties": {"addr:city": "Opole", "addr:housenumber": "2", "addr:postcode": "45-273", "addr:street": "Emila Fieldorfa", "amenity": "clinic", "healthcare": "clinic", "name": "LUX MED", "_id": "node/12691099000"}, "geometry": {"type": "Point", "coordinates": [17.9487801, 50.6848324]}}, {"type": "Feature", "properties": {"addr:city": "Opole", "addr:housenumber": "10", "addr:postcode": "45-080", "addr:street": "Żwirki i Wigury", "amenity": "dentist", "healthcare": "dentist", "name": "Centrum Stomatologii", "opening_hours": "Mo-Fr 08:30-20:30; Sa 09:00-16:00", "phone": "+48 518 640 300", "_id": "node/12930842603"}, "geometry": {"type": "Point", "coordinates": [17.9236161, 50.6641333]}}, {"type": "Feature", "properties": {"addr:city": "Opole", "addr:housenumber": "8", "addr:postcode": "45-066", "addr:street": "Władysława Reymonta", "amenity": "hospital", "building": "hospital", "building:levels": "4", "contact:mobile": "+48 531 069 489", "email": "centrum@ginekologia.opole.pl", "fax": "+48 77 453 61 06", "healthcare": "hospital", "name": "Centrum Ginekologii, Położnictwa i Neonatologii w Opolu", "phone": "+48 77 454 54 01", "source": "UM Opole", "website": "https://ginekologia.opole.pl/", "_id": "node/207029769"}, "geometry": {"type": "Point", "coordinates": [17.9282011, 50.6668163]}}, {"type": "Feature", "properties": {"amenity": "hospital", "name": "Wojewódzki Specjalistyczny Zespół Neuropsychiatryczny", "_id": "node/228954150"}, "geometry": {"type": "Point", "coordinates": [17.940571, 50.6754746]}}, {"type": "Feature", "properties": {"addr:city": "Opole", "addr:housenumber": "53", "addr:postcode": "45-372", "addr:street": "Augustyna Kośnego", "amenity": "hospital", "email": "sekretariat@szpital.opole.pl", "name": "Szpital Wojewódzki", "phone": "+48 77 443 31 00", "website": "https://szpital.opole.pl/", "_id": "node/229541950"}, "geometry": {"type": "Point", "coordinates": [17.9367897, 50.6712783]}}, {"type": "Feature", "properties": {"addr:city": "Opole", "addr:housenumber": "26", "addr:postcode": "45-401", "addr:street": "Aleja Wincentego Witosa", "amenity": "hospital", "healthcare": "hospital", "healthcare:speciality": "general", "name": "Uniwersytecki Szpital Kliniczny w Opolu", "old_name": "Wojewódzkie Centrum Medyczne", "website": "http://www.wcm.opole.pl", "wheelchair": "yes", "wikidata": "Q50037277", "wikipedia": "pl:Uniwersytecki Szpital Kliniczny w Opolu", "_id": "node/231854908"}, "geometry": {"type": "Point", "coordinates": [17.9765516, 50.6765982]}}, {"type": "Feature", "properties": {"addr:city": "Opole", "addr:housenumber": "1", "addr:postcode": "46-020", "addr:street": "Józefa Pankiewicza", "amenity": "clinic", "building": "yes", "healthcare": "clinic", "name": "Prywatna Klinika", "source": "http://sdi.opolskie.pl/mapa_bazowa/request.aspx", "_id": "node/262107600"}, "geometry": {"type": "Point", "coordinates": [17.9032614, 50.7197587]}}, {"type": "Feature", "properties": {"amenity": "hospital", "healthcare": "hospital", "website": "https://ginekologia.opole.pl/", "_id": "node/328712841"}, "geometry": {"type": "Point", "coordinates": [17.9278168, 50.6668578]}}, {"type": "Feature", "properties": {"amenity": "hospital", "contact:phone": "+48 77 401 11 00", "email": "sekretariat.zozmswiaopole@gmail.com", "name": "Samodzielny Publiczny Zakład Opieki Zdrowotnej MSWiA", "official_name": "Samodzielny Publiczny Zakład Opieki Zdrowotnej Ministerstwa Spraw Wewnętrznych w Opolu", "short_name": "SP ZOZ MSWiA", "website": "http://spzozmswia.opole.pl/", "_id": "node/360413199"}, "geometry": {"type": "Point", "coordinates": [17.9251658, 50.6632873]}}, {"type": "Feature", "properties": {"amenity": "hospital", "healthcare": "hospital", "healthcare:speciality": "oncology", "name": "Opolskie Centrum Onkologii", "_id": "node/409478904"}, "geometry": {"type": "Point", "coordinates": [17.93803, 50.6717533]}}, {"type": "Feature", "properties": {"amenity": "hospital", "healthcare": "hospital", "name": "116 Szpital Wojskowy z Przychodnią", "_id": "node/536472746"}, "geometry": {"type": "Point", "coordinates": [17.8953514, 50.6598404]}}, {"type": "Feature", "properties": {"addr:city": "Opole", "addr:city:simc": "0965016", "addr:housenumber": "54", "addr:street": "Częstochowska", "amenity": "clinic", "building": "yes", "building:levels": "3", "email": "recepcja@medinklinika.com", "healthcare": "clinic", "healthcare:speciality": "stomatology;allergology;vascular_surgery;surgery;gastroenterology;gynaecology;otolaryngology;neurology;orthopaedics;podiatry;urology", "name": "Medin Klinika", "phone": "+48 77 300 00 88", "source": "www.geoportal.gov.pl", "source:addr": "opole.e-mapa.net", "website": "https://medinklinika.com/", "_id": "node/1029325068"}, "geometry": {"type": "Point", "coordinates": [17.9891911, 50.6727065]}}, {"type": "Feature", "properties": {"addr:city": "Opole", "addr:housenumber": "50", "addr:street": "Częstochowska", "amenity": "clinic", "building": "yes", "email": "biuro@panmedica.pl", "healthcare": "clinic", "healthcare:speciality": "anaesthetics;surgery;paediatric_surgery;vascular_surgery;gynaecology;otolaryngology;oncology;orthopaedics;proctology;radiology;urology", "name": "PanMedica", "opening_hours": "Mo-Fr 09:00-19:00", "phone": "+48 690 346 214;+48 77 411 64 02", "source": "UM Opole", "website": "https://panmedica.pl/", "_id": "node/1272924912"}, "geometry": {"type": "Point", "coordinates": [17.9882761, 50.6726649]}}]}